{
"type": "FeatureCollection",
"name": "hotels",
"crs": { "type": "name", "properties": { "name": "urn:ogc:def:crs:EPSG::4283" } },
"features": [
{ "type": "Feature", "properties": { "property_number": "101221", "venue_name": "The Elephant and Wheelbarrow", "venue_address": "94-96 Bourke Street, Melbourne, 3000", "space_type": "Hotel", "lat": -37.812003038513303, "lon": 144.970325870793, "geolocation": "-37.812003038513254, 144.97032587079298" }, "geometry": { "type": "Point", "coordinates": [ 144.970325870793005, -37.812003038513303 ] } },
{ "type": "Feature", "properties": { "property_number": "598592", "venue_name": "RACV City Club", "venue_address": "501 Bourke Street, Melbourne, 3000", "space_type": "Hotel", "lat": -37.815572078335997, "lon": 144.95910170076399, "geolocation": "-37.81557207833605, 144.9591017007643" }, "geometry": { "type": "Point", "coordinates": [ 144.959101700763995, -37.815572078335997 ] } },
{ "type": "Feature", "properties": { "property_number": "108202", "venue_name": "Capitano", "venue_address": "421 Rathdowne Street, Carlton, 3053", "space_type": "Hotel", "lat": -37.7964516748874, "lon": 144.97050823745599, "geolocation": "-37.79645167488737, 144.97050823745553" }, "geometry": { "type": "Point", "coordinates": [ 144.970508237455988, -37.7964516748874 ] } },
{ "type": "Feature", "properties": { "property_number": "626980", "venue_name": "The Woolshed", "venue_address": "Shed 9, Victoria Harbour, Docklands, 3008", "space_type": "Hotel", "lat": -37.816571590803598, "lon": 144.943993958449, "geolocation": "-37.816571590803626, 144.9439939584494" }, "geometry": { "type": "Point", "coordinates": [ 144.943993958448999, -37.816571590803598 ] } },
{ "type": "Feature", "properties": { "property_number": "512532", "venue_name": "Coopers Inn", "venue_address": "Shop 1, 242 Exhibition Street, Melbourne, 3000", "space_type": "Hotel", "lat": -37.809916568560297, "lon": 144.969758614292, "geolocation": "-37.809916568560254, 144.96975861429243" }, "geometry": { "type": "Point", "coordinates": [ 144.969758614292004, -37.809916568560297 ] } },
{ "type": "Feature", "properties": { "property_number": "101450", "venue_name": "Dan O'Connell Hotel", "venue_address": "223-227 Canning Street, Carlton, 3053", "space_type": "Hotel", "lat": -37.793035832642502, "lon": 144.97352566239499, "geolocation": "-37.7930358326425, 144.9735256623954" }, "geometry": { "type": "Point", "coordinates": [ 144.973525662394991, -37.793035832642502 ] } },
{ "type": "Feature", "properties": { "property_number": "106329", "venue_name": "Hardimans Hotel", "venue_address": "521 Macaulay Road, Kensington, 3031", "space_type": "Hotel", "lat": -37.794361259769303, "lon": 144.928603159255, "geolocation": "-37.79436125976925, 144.92860315925475" }, "geometry": { "type": "Point", "coordinates": [ 144.928603159255005, -37.794361259769303 ] } },
{ "type": "Feature", "properties": { "property_number": "105379", "venue_name": "Colonial Hotel\/Brown Alley Night Club", "venue_address": "240 King Street, Melbourne, 3000", "space_type": "Hotel", "lat": -37.814605654149901, "lon": 144.95509368927401, "geolocation": "-37.81460565414994, 144.95509368927424" }, "geometry": { "type": "Point", "coordinates": [ 144.955093689274008, -37.814605654149901 ] } },
{ "type": "Feature", "properties": { "property_number": "628340", "venue_name": "The Wharf Hotel", "venue_address": "Shop 17, Ground, 18-38 Siddeley Street, Docklands, 3008", "space_type": "Hotel", "lat": -37.822274540645097, "lon": 144.953597464404, "geolocation": "-37.82227454064513, 144.9535974644043" }, "geometry": { "type": "Point", "coordinates": [ 144.953597464403998, -37.822274540645097 ] } },
{ "type": "Feature", "properties": { "property_number": "564954", "venue_name": "Flinders Station Hotel Backpackers", "venue_address": "Unit 8-17, Level 3-12, 35 Elizabeth Street, Melbourne, 3000", "space_type": "Hotel", "lat": -37.817394481223801, "lon": 144.96449885405801, "geolocation": "-37.81739448122377, 144.964498854058" }, "geometry": { "type": "Point", "coordinates": [ 144.964498854058007, -37.817394481223801 ] } },
{ "type": "Feature", "properties": { "property_number": "103402", "venue_name": "Town Hall Hotel", "venue_address": "33 Errol Street, North Melbourne, 3051", "space_type": "Hotel", "lat": -37.804224481221297, "lon": 144.94924245595499, "geolocation": "-37.8042244812213, 144.94924245595533" }, "geometry": { "type": "Point", "coordinates": [ 144.949242455954987, -37.804224481221297 ] } },
{ "type": "Feature", "properties": { "property_number": "634051", "venue_name": "Munich Brauhaus", "venue_address": "45 South Wharf Promenade, South Wharf, 3006", "space_type": "Hotel", "lat": -37.8240757650535, "lon": 144.95043329351699, "geolocation": "-37.82407576505346, 144.95043329351685" }, "geometry": { "type": "Point", "coordinates": [ 144.950433293516994, -37.8240757650535 ] } },
{ "type": "Feature", "properties": { "property_number": "613003", "venue_name": "P.J. O'Brien's", "venue_address": "Shop 12-16, Ground, 3 Southgate Avenue, Southbank, 3006", "space_type": "Hotel", "lat": -37.820333979962498, "lon": 144.96641804243299, "geolocation": "-37.82033397996246, 144.9664180424327" }, "geometry": { "type": "Point", "coordinates": [ 144.966418042432991, -37.820333979962498 ] } },
{ "type": "Feature", "properties": { "property_number": "634045", "venue_name": "The General Assembly", "venue_address": "29 South Wharf Promenade, South Wharf, 3006", "space_type": "Hotel", "lat": -37.824118286904998, "lon": 144.95189029706, "geolocation": "-37.82411828690496, 144.95189029706034" }, "geometry": { "type": "Point", "coordinates": [ 144.951890297060004, -37.824118286904998 ] } },
{ "type": "Feature", "properties": { "property_number": "108547", "venue_name": "Exford Hotel", "venue_address": "199-203 Russell Street, Melbourne, 3000", "space_type": "Hotel", "lat": -37.811762953913998, "lon": 144.967438737545, "geolocation": "-37.81176295391396, 144.96743873754548" }, "geometry": { "type": "Point", "coordinates": [ 144.967438737544995, -37.811762953913998 ] } },
{ "type": "Feature", "properties": { "property_number": "508074", "venue_name": "The Charles Dickens Tavern", "venue_address": "Basement, 290 Collins Street, Melbourne, 3000", "space_type": "Hotel", "lat": -37.815938155288201, "lon": 144.96453019096899, "geolocation": "-37.81593815528815, 144.96453019096924" }, "geometry": { "type": "Point", "coordinates": [ 144.964530190968986, -37.815938155288201 ] } },
{ "type": "Feature", "properties": { "property_number": "101613", "venue_name": "Clyde Hotel", "venue_address": "377-389 Cardigan Street, Carlton, 3053", "space_type": "Hotel", "lat": -37.797284200523002, "lon": 144.96584791599099, "geolocation": "-37.797284200523016, 144.965847915991" }, "geometry": { "type": "Point", "coordinates": [ 144.965847915990992, -37.797284200523002 ] } },
{ "type": "Feature", "properties": { "property_number": "101130", "venue_name": "The Carlton", "venue_address": "193-199 Bourke Street, Melbourne, 3000", "space_type": "Hotel", "lat": -37.813094702576798, "lon": 144.96761669936399, "geolocation": "-37.81309470257678, 144.9676166993641" }, "geometry": { "type": "Point", "coordinates": [ 144.967616699363987, -37.813094702576798 ] } },
{ "type": "Feature", "properties": { "property_number": "110111", "venue_name": "Royal Standard Hotel", "venue_address": "333-337 William Street, West Melbourne, 3003", "space_type": "Hotel", "lat": -37.807771736290903, "lon": 144.95440618119699, "geolocation": "-37.80777173629092, 144.9544061811974" }, "geometry": { "type": "Point", "coordinates": [ 144.954406181196987, -37.807771736290903 ] } },
{ "type": "Feature", "properties": { "property_number": "110106", "venue_name": "The Metropolitan Hotel", "venue_address": "The Metropolitan Hotel, 263-265 William Street, Melbourne, 3000", "space_type": "Hotel", "lat": -37.8129114049826, "lon": 144.956762404713, "geolocation": "-37.812911404982586, 144.95676240471337" }, "geometry": { "type": "Point", "coordinates": [ 144.956762404713004, -37.8129114049826 ] } },
{ "type": "Feature", "properties": { "property_number": "108983", "venue_name": "The Hotel Windsor", "venue_address": "103-137 Spring Street, Melbourne, 3000", "space_type": "Hotel", "lat": -37.811959374921202, "lon": 144.97313628316499, "geolocation": "-37.81195937492122, 144.97313628316482" }, "geometry": { "type": "Point", "coordinates": [ 144.97313628316499, -37.811959374921202 ] } },
{ "type": "Feature", "properties": { "property_number": "109721", "venue_name": "Three Crowns Hotel", "venue_address": "361-365 Victoria Street, West Melbourne, 3003", "space_type": "Hotel", "lat": -37.805287913012599, "lon": 144.94948982204301, "geolocation": "-37.8052879130126, 144.9494898220434" }, "geometry": { "type": "Point", "coordinates": [ 144.949489822043006, -37.805287913012599 ] } },
{ "type": "Feature", "properties": { "property_number": "105636", "venue_name": "The Leveson", "venue_address": "46 Leveson Street, North Melbourne, 3051", "space_type": "Hotel", "lat": -37.803707930187002, "lon": 144.95118507801399, "geolocation": "-37.80370793018695, 144.951185078014" }, "geometry": { "type": "Point", "coordinates": [ 144.951185078013992, -37.803707930187002 ] } },
{ "type": "Feature", "properties": { "property_number": "102525", "venue_name": "The Langham", "venue_address": "234-236 Domain Road, South Yarra, 3141", "space_type": "Hotel", "lat": -37.834448698586499, "lon": 144.98562037149901, "geolocation": "-37.83444869858646, 144.98562037149898" }, "geometry": { "type": "Point", "coordinates": [ 144.98562037149901, -37.834448698586499 ] } },
{ "type": "Feature", "properties": { "property_number": "509806", "venue_name": "The Botanical", "venue_address": "169 Domain Road, South Yarra, 3141", "space_type": "Hotel", "lat": -37.834143915944203, "lon": 144.981792638093, "geolocation": "-37.83414391594419, 144.98179263809277" }, "geometry": { "type": "Point", "coordinates": [ 144.981792638092998, -37.834143915944203 ] } },
{ "type": "Feature", "properties": { "property_number": "109257", "venue_name": "Young & Jackson", "venue_address": "Young And Jacksons Hotel, 1 Swanston Street, Melbourne, 3000", "space_type": "Hotel", "lat": -37.817364327682697, "lon": 144.96721031538399, "geolocation": "-37.81736432768269, 144.96721031538397" }, "geometry": { "type": "Point", "coordinates": [ 144.967210315383994, -37.817364327682697 ] } },
{ "type": "Feature", "properties": { "property_number": "107919", "venue_name": "Sokol Melbourne", "venue_address": "497 Queensberry Street, North Melbourne, 3051", "space_type": "Hotel", "lat": -37.803320098162601, "lon": 144.950760271044, "geolocation": "-37.80332009816263, 144.95076027104383" }, "geometry": { "type": "Point", "coordinates": [ 144.950760271044004, -37.803320098162601 ] } },
{ "type": "Feature", "properties": { "property_number": "103922", "venue_name": "Garden State Hotel", "venue_address": "95-101 Flinders Lane, Melbourne, 3000", "space_type": "Hotel", "lat": -37.815333649123403, "lon": 144.971038856571, "geolocation": "-37.81533364912343, 144.97103885657114" }, "geometry": { "type": "Point", "coordinates": [ 144.971038856570999, -37.815333649123403 ] } },
{ "type": "Feature", "properties": { "property_number": "614233", "venue_name": "Transit Rooftop Bar", "venue_address": "Tenancy 29, Level 2, 2 Swanston Street, Melbourne, 3000", "space_type": "Hotel", "lat": -37.818289569132602, "lon": 144.968968933621, "geolocation": "-37.81828956913258, 144.96896893362114" }, "geometry": { "type": "Point", "coordinates": [ 144.968968933620999, -37.818289569132602 ] } },
{ "type": "Feature", "properties": { "property_number": "108536", "venue_name": "The Crafty Squire", "venue_address": "115-127 Russell Street, Melbourne, 3000", "space_type": "Hotel", "lat": -37.813640544784498, "lon": 144.96829657234801, "geolocation": "-37.81364054478455, 144.96829657234807" }, "geometry": { "type": "Point", "coordinates": [ 144.968296572348009, -37.813640544784498 ] } }
]
}
